{
"type": "FeatureCollection",
"name": "points",
"crs": { "type": "name", "properties": { "name": "urn:ogc:def:crs:OGC:1.3:CRS84" } },
"features": [
{ "type": "Feature", "properties": { "id": "2", "name": "Мелітополь" }, "geometry": { "type": "Point", "coordinates": [ 35.364356109254707, 46.847337575681806 ] } },
{ "type": "Feature", "properties": { "id": "1", "name": "Токмак" }, "geometry": { "type": "Point", "coordinates": [ 35.706456305195267, 47.254621935934324 ] } },
{ "type": "Feature", "properties": { "id": "3", "name": "Опорний пункт першої лінії" }, "geometry": { "type": "Point", "coordinates": [ 35.826602353504001, 47.431430612752372 ] } },
{ "type": "Feature", "properties": { "id": "4", "name": "Стрілецька позиція" }, "geometry": { "type": "Point", "coordinates": [ 35.825382475692308, 47.432423778151524 ] } },
{ "type": "Feature", "properties": { "id": "4", "name": "Стрілецька позиція" }, "geometry": { "type": "Point", "coordinates": [ 35.826878817769554, 47.432295242817645 ] } }
]
}
